mid:0;x:0;y:0;z:0;mpry:0,0,0;pitch:0;roll:0;yaw:0;vgx:0;vgy:0;vgz:0;templ:87;temph:89;tof:10;h:0;bat:87;baro:99.85;time:0;agx:-1.00;agy:-12.00;agz:-998.00;
mid:0;x:0;y:0;z:0;mpry:0,0,0;pitch:0;roll:0;yaw:0;vgx:0;vgy:0;vgz:0;templ:87;temph:89;tof:10;h:0;bat:87;baro:99.37;time:0;agx:1.00;agy:-13.00;agz:-1000.00;
mid:0;x:0;y:0;z:0;mpry:0,0,0;pitch:0;roll:0;yaw:0;vgx:0;vgy:0;vgz:0;templ:87;temph:89;tof:10;h:0;bat:87;baro:99.82;time:0;agx:0.00;agy:-11.00;agz:-999.00;
mid:0;x:0;y:0;z:0;mpry:0,0,0;pitch:0;roll:0;yaw:0;vgx:0;vgy:0;vgz:0;templ:87;temph:89;tof:10;h:0;bat:87;baro:99.71;time:0;agx:0.00;agy:-10.00;agz:-999.00;
mid:0;x:0;y:0;z:0;mpry:0,0,0;pitch:0;roll:0;yaw:0;vgx:0;vgy:0;vgz:0;templ:87;temph:89;tof:10;h:0;bat:87;baro:99.54;time:0;agx:0.00;agy:-13.00;agz:-1001.00;
mid:0;x:0;y:0;z:0;mpry:0,0,0;pitch:0;roll:0;yaw:0;vgx:0;vgy:0;vgz:0;templ:87;temph:89;tof:10;h:0;bat:87;baro:99.75;time:0;agx:0.00;agy:-13.00;agz:-1002.00;
mid:0;x:0;y:0;z:0;mpry:0,0,0;pitch:0;roll:0;yaw:0;vgx:0;vgy:0;vgz:0;templ:87;temph:89;tof:10;h:0;bat:87;baro:99.78;time:0;agx:0.00;agy:-12.00;agz:-999.00;
mid:0;x:0;y:0;z:0;mpry:0,0,0;pitch:0;roll:0;yaw:0;vgx:0;vgy:0;vgz:0;templ:87;temph:89;tof:10;h:0;bat:87;baro:99.75;time:0;agx:-1.00;agy:-15.00;agz:-998.00;
mid:0;x:0;y:0;z:0;mpry:0,0,0;pitch:0;roll:0;yaw:0;vgx:0;vgy:0;vgz:0;templ:87;temph:89;tof:10;h:0;bat:87;baro:100.00;time:0;agx:0.00;agy:-12.00;agz:-1002.00;
mid:0;x:0;y:0;z:0;mpry:0,0,0;pitch:0;roll:0;yaw:0;vgx:0;vgy:0;vgz:0;templ:87;temph:89;tof:10;h:0;bat:87;baro:99.54;time:0;agx:1.00;agy:-13.00;agz:-998.00;
mid:0;x:0;y:0;z:0;mpry:0,0,0;pitch:0;roll:0;yaw:0;vgx:0;vgy:0;vgz:0;templ:87;temph:89;tof:10;h:0;bat:87;baro:99.89;time:0;agx:0.00;agy:-14.00;agz:-999.00;
mid:0;x:0;y:0;z:0;mpry:0,0,0;pitch:0;roll:0;yaw:0;vgx:0;vgy:0;vgz:0;templ:87;temph:89;tof:10;h:0;bat:87;baro:99.94;time:0;agx:0.00;agy:-11.00;agz:-999.00;
mid:0;x:0;y:0;z:0;mpry:0,0,0;pitch:0;roll:0;yaw:0;vgx:0;vgy:0;vgz:0;templ:87;temph:89;tof:10;h:0;bat:87;baro:99.79;time:0;agx:0.00;agy:-13.00;agz:-997.00;
mid:0;x:0;y:0;z:0;mpry:0,0,0;pitch:0;roll:0;yaw:0;vgx:0;vgy:0;vgz:0;templ:87;temph:89;tof:10;h:0;bat:87;baro:99.57;time:0;agx:1.00;agy:-12.00;agz:-997.00;
mid:0;x:0;y:0;z:0;mpry:0,0,0;pitch:0;roll:0;yaw:0;vgx:0;vgy:0;vgz:0;templ:87;temph:89;tof:10;h:0;bat:87;baro:99.79;time:0;agx:0.00;agy:-13.00;agz:-997.00;
mid:0;x:0;y:0;z:0;mpry:0,0,0;pitch:0;roll:0;yaw:0;vgx:0;vgy:0;vgz:0;templ:87;temph:89;tof:10;h:0;bat:87;baro:99.86;time:0;agx:0.00;agy:-10.00;agz:-1004.00;
mid:0;x:0;y:0;z:0;mpry:0,0,0;pitch:0;roll:0;yaw:0;vgx:0;vgy:0;vgz:0;templ:87;temph:89;tof:10;h:0;bat:87;baro:99.60;time:0;agx:1.00;agy:-10.00;agz:-996.00;
mid:0;x:0;y:0;z:0;mpry:0,0,0;pitch:0;roll:0;yaw:0;vgx:0;vgy:0;vgz:0;templ:87;temph:89;tof:10;h:0;bat:87;baro:99.81;time:0;agx:1.00;agy:-12.00;agz:-998.00;
mid:0;x:0;y:0;z:0;mpry:0,0,0;pitch:0;roll:0;yaw:0;vgx:0;vgy:0;vgz:0;templ:87;temph:89;tof:10;h:0;bat:87;baro:99.81;time:0;agx:0.00;agy:-11.00;agz:-1003.00;
mid:0;x:0;y:0;z:0;mpry:0,0,0;pitch:0;roll:0;yaw:0;vgx:0;vgy:0;vgz:0;templ:87;temph:89;tof:10;h:0;bat:87;baro:99.51;time:0;agx:-2.00;agy:-13.00;agz:-1000.00;
mid:0;x:0;y:0;z:0;mpry:0,0,0;pitch:0;roll:0;yaw:0;vgx:0;vgy:0;vgz:0;templ:88;temph:89;tof:10;h:0;bat:87;baro:99.49;time:0;agx:0.00;agy:-14.00;agz:-1003.00;
mid:0;x:0;y:0;z:0;mpry:0,0,0;pitch:0;roll:0;yaw:0;vgx:0;vgy:0;vgz:0;templ:88;temph:89;tof:10;h:0;bat:87;baro:99.52;time:0;agx:0.00;agy:-12.00;agz:-993.00;
mid:0;x:0;y:0;z:0;mpry:0,0,0;pitch:0;roll:0;yaw:0;vgx:0;vgy:0;vgz:0;templ:88;temph:89;tof:10;h:0;bat:87;baro:99.88;time:0;agx:-2.00;agy:-13.00;agz:-1006.00;
mid:0;x:0;y:0;z:0;mpry:0,0,0;pitch:0;roll:0;yaw:0;vgx:0;vgy:0;vgz:0;templ:88;temph:89;tof:10;h:0;bat:87;baro:100.02;time:0;agx:-2.00;agy:-14.00;agz:-997.00;
mid:0;x:0;y:0;z:0;mpry:0,0,0;pitch:0;roll:0;yaw:0;vgx:0;vgy:0;vgz:0;templ:88;temph:89;tof:10;h:0;bat:87;baro:99.61;time:0;agx:0.00;agy:-12.00;agz:-1003.00;
mid:0;x:0;y:0;z:0;mpry:0,0,0;pitch:0;roll:0;yaw:0;vgx:0;vgy:0;vgz:0;templ:88;temph:89;tof:10;h:0;bat:87;baro:99.95;time:0;agx:0.00;agy:-13.00;agz:-1001.00;
mid:0;x:0;y:0;z:0;mpry:0,0,0;pitch:0;roll:0;yaw:0;vgx:0;vgy:0;vgz:0;templ:88;temph:89;tof:10;h:0;bat:87;baro:99.64;time:0;agx:0.00;agy:-16.00;agz:-1000.00;
mid:64;x:0;y:0;z:0;mpry:0,0,0;pitch:0;roll:0;yaw:0;vgx:0;vgy:0;vgz:0;templ:88;temph:89;tof:10;h:0;bat:87;baro:99.87;time:0;agx:-1.00;agy:-15.00;agz:-1000.00;
mid:64;x:0;y:0;z:0;mpry:0,0,0;pitch:0;roll:0;yaw:0;vgx:0;vgy:0;vgz:0;templ:88;temph:89;tof:10;h:0;bat:87;baro:99.71;time:0;agx:0.00;agy:-14.00;agz:-1000.00;
mid:64;x:0;y:0;z:0;mpry:0,0,0;pitch:0;roll:0;yaw:0;vgx:0;vgy:0;vgz:0;templ:88;temph:89;tof:10;h:0;bat:87;baro:99.90;time:0;agx:0.00;agy:-14.00;agz:-996.00;
mid:64;x:0;y:0;z:0;mpry:0,0,0;pitch:0;roll:0;yaw:0;vgx:0;vgy:0;vgz:0;templ:87;temph:89;tof:10;h:0;bat:87;baro:99.49;time:0;agx:0.00;agy:-12.00;agz:-999.00;
mid:64;x:0;y:0;z:0;mpry:0,0,0;pitch:0;roll:0;yaw:0;vgx:0;vgy:0;vgz:0;templ:87;temph:89;tof:10;h:0;bat:87;baro:99.64;time:0;agx:-1.00;agy:-13.00;agz:-1000.00;
mid:64;x:0;y:0;z:0;mpry:0,0,0;pitch:0;roll:0;yaw:0;vgx:0;vgy:0;vgz:0;templ:87;temph:89;tof:10;h:0;bat:87;baro:99.57;time:0;agx:0.00;agy:-13.00;agz:-1000.00;
mid:257;x:0;y:0;z:0;mpry:0,0,0;pitch:0;roll:0;yaw:0;vgx:0;vgy:0;vgz:0;templ:87;temph:89;tof:10;h:0;bat:87;baro:99.67;time:0;agx:0.00;agy:-12.00;agz:-999.00;
mid:257;x:0;y:0;z:0;mpry:0,0,0;pitch:0;roll:0;yaw:0;vgx:0;vgy:0;vgz:0;templ:87;temph:89;tof:10;h:0;bat:87;baro:99.54;time:0;agx:-2.00;agy:-10.00;agz:-998.00;
mid:257;x:0;y:0;z:0;mpry:0,0,0;pitch:0;roll:0;yaw:0;vgx:0;vgy:0;vgz:0;templ:87;temph:89;tof:10;h:0;bat:87;baro:99.86;time:0;agx:-3.00;agy:-10.00;agz:-1000.00;
mid:257;x:0;y:0;z:0;mpry:0,0,0;pitch:0;roll:0;yaw:0;vgx:0;vgy:0;vgz:0;templ:87;temph:89;tof:10;h:0;bat:87;baro:99.47;time:0;agx:-4.00;agy:-11.00;agz:-998.00;
mid:257;x:0;y:0;z:0;mpry:0,0,0;pitch:0;roll:0;yaw:0;vgx:0;vgy:0;vgz:0;templ:87;temph:89;tof:10;h:0;bat:87;baro:99.90;time:0;agx:-1.00;agy:-15.00;agz:-999.00;
mid:257;x:0;y:0;z:0;mpry:0,0,0;pitch:0;roll:0;yaw:0;vgx:0;vgy:0;vgz:0;templ:87;temph:89;tof:10;h:0;bat:87;baro:99.42;time:0;agx:-1.00;agy:-11.00;agz:-1000.00;
mid:257;x:0;y:0;z:0;mpry:0,0,0;pitch:0;roll:0;yaw:0;vgx:0;vgy:0;vgz:0;templ:87;temph:89;tof:10;h:0;bat:87;baro:99.61;time:0;agx:2.00;agy:-13.00;agz:-997.00;
mid:257;x:0;y:0;z:0;mpry:0,0,0;pitch:0;roll:0;yaw:0;vgx:0;vgy:0;vgz:0;templ:88;temph:89;tof:10;h:0;bat:87;baro:99.63;time:0;agx:1.00;agy:-12.00;agz:-1001.00;
mid:257;x:0;y:0;z:0;mpry:0,0,0;pitch:0;roll:0;yaw:0;vgx:0;vgy:0;vgz:0;templ:88;temph:89;tof:10;h:0;bat:87;baro:99.79;time:0;agx:0.00;agy:-13.00;agz:-1001.00;
mid:257;x:0;y:0;z:0;mpry:0,0,0;pitch:0;roll:0;yaw:0;vgx:0;vgy:0;vgz:0;templ:88;temph:89;tof:10;h:0;bat:87;baro:99.52;time:0;agx:0.00;agy:-14.00;agz:-998.00;
mid:257;x:0;y:0;z:0;mpry:0,0,0;pitch:0;roll:0;yaw:0;vgx:0;vgy:0;vgz:0;templ:88;temph:89;tof:10;h:0;bat:87;baro:99.42;time:0;agx:0.00;agy:-10.00;agz:-1000.00;
mid:257;x:0;y:0;z:0;mpry:0,0,0;pitch:0;roll:0;yaw:0;vgx:0;vgy:0;vgz:0;templ:88;temph:89;tof:10;h:0;bat:87;baro:99.87;time:0;agx:0.00;agy:-13.00;agz:-999.00;
mid:257;x:0;y:0;z:0;mpry:0,0,0;pitch:0;roll:0;yaw:0;vgx:0;vgy:0;vgz:0;templ:88;temph:89;tof:10;h:0;bat:87;baro:99.64;time:0;agx:-1.00;agy:-12.00;agz:-999.00;
mid:257;x:0;y:0;z:0;mpry:0,0,0;pitch:0;roll:0;yaw:0;vgx:0;vgy:0;vgz:0;templ:88;temph:89;tof:10;h:0;bat:87;baro:99.69;time:0;agx:0.00;agy:-13.00;agz:-997.00;
mid:64;x:0;y:0;z:0;mpry:0,0,0;pitch:0;roll:0;yaw:0;vgx:0;vgy:0;vgz:0;templ:88;temph:89;tof:10;h:0;bat:87;baro:99.57;time:0;agx:0.00;agy:-14.00;agz:-1001.00;
mid:64;x:0;y:0;z:0;mpry:0,0,0;pitch:0;roll:0;yaw:0;vgx:0;vgy:0;vgz:0;templ:88;temph:89;tof:10;h:0;bat:87;baro:99.59;time:0;agx:-1.00;agy:-14.00;agz:-999.00;
mid:64;x:0;y:0;z:0;mpry:0,0,0;pitch:0;roll:0;yaw:0;vgx:0;vgy:0;vgz:0;templ:88;temph:89;tof:10;h:0;bat:87;baro:99.66;time:0;agx:-1.00;agy:-15.00;agz:-999.00;
mid:64;x:0;y:0;z:0;mpry:0,0,0;pitch:0;roll:0;yaw:0;vgx:0;vgy:0;vgz:0;templ:87;temph:89;tof:10;h:0;bat:87;baro:99.41;time:0;agx:-1.00;agy:-12.00;agz:-1002.00;
mid:64;x:0;y:0;z:0;mpry:0,0,0;pitch:0;roll:0;yaw:0;vgx:0;vgy:0;vgz:0;templ:87;temph:89;tof:10;h:0;bat:87;baro:99.61;time:0;agx:0.00;agy:-11.00;agz:-1003.00;
mid:64;x:0;y:0;z:0;mpry:0,0,0;pitch:0;roll:0;yaw:0;vgx:0;vgy:0;vgz:0;templ:87;temph:89;tof:10;h:0;bat:87;baro:99.87;time:0;agx:0.00;agy:-12.00;agz:-1002.00;
mid:64;x:0;y:0;z:0;mpry:0,0,0;pitch:0;roll:0;yaw:0;vgx:0;vgy:0;vgz:0;templ:87;temph:89;tof:10;h:0;bat:87;baro:99.73;time:0;agx:3.00;agy:-11.00;agz:-990.00;
mid:64;x:0;y:0;z:0;mpry:0,0,0;pitch:0;roll:0;yaw:0;vgx:0;vgy:0;vgz:0;templ:87;temph:89;tof:10;h:0;bat:87;baro:99.54;time:0;agx:2.00;agy:-9.00;agz:-1003.00;
mid:64;x:0;y:0;z:0;mpry:0,0,0;pitch:0;roll:0;yaw:0;vgx:0;vgy:0;vgz:0;templ:87;temph:89;tof:10;h:0;bat:87;baro:99.96;time:0;agx:0.00;agy:-17.00;agz:-1027.00;
mid:64;x:0;y:0;z:0;mpry:0,0,0;pitch:0;roll:0;yaw:0;vgx:0;vgy:0;vgz:0;templ:87;temph:89;tof:10;h:0;bat:87;baro:99.78;time:0;agx:0.00;agy:-14.00;agz:-998.00;
mid:64;x:0;y:0;z:0;mpry:0,0,0;pitch:0;roll:0;yaw:0;vgx:0;vgy:0;vgz:0;templ:87;temph:89;tof:10;h:0;bat:87;baro:99.76;time:0;agx:1.00;agy:-14.00;agz:-1002.00;
mid:64;x:0;y:0;z:0;mpry:0,0,0;pitch:0;roll:0;yaw:0;vgx:0;vgy:0;vgz:0;templ:87;temph:89;tof:10;h:0;bat:87;baro:99.54;time:0;agx:0.00;agy:-12.00;agz:-996.00;
mid:64;x:0;y:0;z:0;mpry:0,0,0;pitch:0;roll:0;yaw:0;vgx:0;vgy:0;vgz:0;templ:87;temph:89;tof:10;h:0;bat:87;baro:99.85;time:0;agx:0.00;agy:-13.00;agz:-999.00;
mid:64;x:0;y:0;z:0;mpry:0,0,0;pitch:0;roll:0;yaw:0;vgx:0;vgy:0;vgz:0;templ:87;temph:90;tof:10;h:0;bat:87;baro:99.40;time:0;agx:0.00;agy:-12.00;agz:-1002.00;
mid:64;x:0;y:0;z:0;mpry:0,0,0;pitch:0;roll:0;yaw:0;vgx:0;vgy:0;vgz:0;templ:87;temph:90;tof:10;h:0;bat:87;baro:99.94;time:0;agx:1.00;agy:-11.00;agz:-999.00;
mid:64;x:0;y:0;z:0;mpry:0,0,0;pitch:0;roll:0;yaw:0;vgx:0;vgy:0;vgz:0;templ:87;temph:90;tof:10;h:0;bat:87;baro:99.73;time:0;agx:0.00;agy:-12.00;agz:-1000.00;
mid:64;x:0;y:0;z:0;mpry:0,0,0;pitch:0;roll:0;yaw:0;vgx:0;vgy:0;vgz:0;templ:87;temph:90;tof:10;h:0;bat:87;baro:99.46;time:0;agx:0.00;agy:-13.00;agz:-999.00;
mid:4;x:0;y:0;z:0;mpry:0,0,0;pitch:0;roll:0;yaw:0;vgx:0;vgy:0;vgz:0;templ:90;temph:92;tof:10;h:0;bat:83;baro:98.95;time:0;agx:-4.00;agy:-15.00;agz:-999.00;
mid:4;x:0;y:0;z:0;mpry:0,0,0;pitch:0;roll:0;yaw:0;vgx:0;vgy:0;vgz:0;templ:90;temph:92;tof:10;h:0;bat:83;baro:98.70;time:0;agx:0.00;agy:-15.00;agz:-997.00;
mid:4;x:0;y:0;z:0;mpry:0,0,0;pitch:0;roll:0;yaw:0;vgx:0;vgy:0;vgz:0;templ:90;temph:92;tof:10;h:0;bat:83;baro:99.08;time:0;agx:0.00;agy:-11.00;agz:-1001.00;
mid:4;x:0;y:0;z:0;mpry:0,0,0;pitch:0;roll:0;yaw:0;vgx:0;vgy:0;vgz:0;templ:90;temph:92;tof:10;h:0;bat:83;baro:98.61;time:0;agx:0.00;agy:-11.00;agz:-1000.00;
mid:4;x:0;y:0;z:0;mpry:0,0,0;pitch:0;roll:0;yaw:0;vgx:0;vgy:0;vgz:0;templ:90;temph:92;tof:10;h:0;bat:83;baro:98.89;time:0;agx:0.00;agy:-11.00;agz:-999.00;
mid:4;x:0;y:0;z:0;mpry:0,0,0;pitch:0;roll:0;yaw:0;vgx:0;vgy:0;vgz:0;templ:90;temph:92;tof:10;h:0;bat:83;baro:98.55;time:0;agx:0.00;agy:-12.00;agz:-999.00;
mid:4;x:0;y:0;z:0;mpry:0,0,0;pitch:0;roll:0;yaw:0;vgx:0;vgy:0;vgz:0;templ:90;temph:92;tof:10;h:0;bat:83;baro:98.64;time:0;agx:3.00;agy:-10.00;agz:-1001.00;
mid:4;x:0;y:0;z:0;mpry:0,0,0;pitch:0;roll:0;yaw:0;vgx:0;vgy:0;vgz:0;templ:90;temph:92;tof:10;h:0;bat:83;baro:98.89;time:0;agx:0.00;agy:-12.00;agz:-998.00;
mid:4;x:0;y:0;z:0;mpry:0,0,0;pitch:0;roll:0;yaw:0;vgx:0;vgy:0;vgz:0;templ:90;temph:92;tof:10;h:0;bat:83;baro:98.65;time:0;agx:0.00;agy:-11.00;agz:-999.00;
mid:4;x:0;y:0;z:0;mpry:0,0,0;pitch:0;roll:0;yaw:0;vgx:0;vgy:0;vgz:0;templ:90;temph:92;tof:10;h:0;bat:83;baro:99.14;time:0;agx:0.00;agy:-10.00;agz:-998.00;
mid:4;x:0;y:0;z:0;mpry:0,0,0;pitch:0;roll:0;yaw:0;vgx:0;vgy:0;vgz:0;templ:90;temph:92;tof:10;h:0;bat:83;baro:98.74;time:0;agx:0.00;agy:-11.00;agz:-1000.00;
mid:4;x:0;y:0;z:0;mpry:0,0,0;pitch:0;roll:0;yaw:0;vgx:0;vgy:0;vgz:0;templ:90;temph:92;tof:10;h:0;bat:83;baro:98.72;time:0;agx:0.00;agy:-14.00;agz:-1000.00;
mid:257;x:0;y:0;z:0;mpry:0,0,0;pitch:0;roll:0;yaw:0;vgx:0;vgy:0;vgz:0;templ:90;temph:92;tof:10;h:0;bat:83;baro:98.93;time:0;agx:0.00;agy:-11.00;agz:-997.00;
mid:257;x:0;y:0;z:0;mpry:0,0,0;pitch:0;roll:0;yaw:0;vgx:0;vgy:0;vgz:0;templ:90;temph:92;tof:10;h:0;bat:83;baro:98.99;time:0;agx:-1.00;agy:-12.00;agz:-999.00;
mid:257;x:0;y:0;z:0;mpry:0,0,0;pitch:0;roll:0;yaw:0;vgx:0;vgy:0;vgz:0;templ:90;temph:92;tof:10;h:0;bat:83;baro:98.79;time:0;agx:0.00;agy:-11.00;agz:-1000.00;
mid:257;x:0;y:0;z:0;mpry:0,0,0;pitch:0;roll:0;yaw:0;vgx:0;vgy:0;vgz:0;templ:90;temph:92;tof:10;h:0;bat:83;baro:98.79;time:0;agx:0.00;agy:-12.00;agz:-999.00;
mid:257;x:0;y:0;z:0;mpry:0,0,0;pitch:0;roll:0;yaw:0;vgx:0;vgy:0;vgz:0;templ:90;temph:92;tof:10;h:0;bat:83;baro:98.56;time:0;agx:0.00;agy:-14.00;agz:-999.00;
mid:257;x:0;y:0;z:0;mpry:0,0,0;pitch:0;roll:0;yaw:0;vgx:0;vgy:0;vgz:0;templ:90;temph:92;tof:10;h:0;bat:83;baro:99.27;time:0;agx:0.00;agy:-11.00;agz:-1000.00;
mid:257;x:0;y:0;z:0;mpry:0,0,0;pitch:0;roll:0;yaw:0;vgx:0;vgy:0;vgz:0;templ:90;temph:92;tof:10;h:0;bat:83;baro:98.82;time:0;agx:0.00;agy:-12.00;agz:-996.00;
mid:257;x:0;y:0;z:0;mpry:0,0,0;pitch:0;roll:0;yaw:0;vgx:0;vgy:0;vgz:0;templ:90;temph:92;tof:10;h:0;bat:83;baro:98.56;time:0;agx:1.00;agy:-10.00;agz:-999.00;
mid:257;x:0;y:0;z:0;mpry:0,0,0;pitch:0;roll:0;yaw:0;vgx:0;vgy:0;vgz:0;templ:90;temph:92;tof:10;h:0;bat:83;baro:98.80;time:0;agx:0.00;agy:-12.00;agz:-1001.00;
mid:257;x:0;y:0;z:0;mpry:0,0,0;pitch:0;roll:0;yaw:0;vgx:0;vgy:0;vgz:0;templ:90;temph:92;tof:10;h:0;bat:83;baro:98.80;time:0;agx:4.00;agy:-9.00;agz:-997.00;
mid:257;x:0;y:0;z:0;mpry:0,0,0;pitch:0;roll:0;yaw:0;vgx:0;vgy:0;vgz:0;templ:90;temph:92;tof:10;h:0;bat:83;baro:98.80;time:0;agx:2.00;agy:-10.00;agz:-996.00;
mid:64;x:0;y:0;z:0;mpry:0,0,0;pitch:0;roll:0;yaw:0;vgx:0;vgy:0;vgz:0;templ:90;temph:92;tof:10;h:0;bat:83;baro:99.03;time:0;agx:2.00;agy:-10.00;agz:-1000.00;
mid:64;x:0;y:0;z:0;mpry:0,0,0;pitch:0;roll:0;yaw:0;vgx:0;vgy:0;vgz:0;templ:90;temph:92;tof:10;h:0;bat:83;baro:99.25;time:0;agx:0.00;agy:-11.00;agz:-998.00;
mid:64;x:0;y:0;z:0;mpry:0,0,0;pitch:0;roll:0;yaw:0;vgx:0;vgy:0;vgz:0;templ:90;temph:92;tof:10;h:0;bat:83;baro:98.82;time:0;agx:1.00;agy:-11.00;agz:-999.00;
mid:64;x:0;y:0;z:0;mpry:0,0,0;pitch:0;roll:0;yaw:0;vgx:0;vgy:0;vgz:0;templ:90;temph:92;tof:10;h:0;bat:83;baro:98.71;time:0;agx:0.00;agy:-12.00;agz:-999.00;
mid:64;x:0;y:0;z:0;mpry:0,0,0;pitch:0;roll:0;yaw:0;vgx:0;vgy:0;vgz:0;templ:90;temph:92;tof:10;h:0;bat:83;baro:98.94;time:0;agx:1.00;agy:-12.00;agz:-1001.00;
mid:64;x:0;y:0;z:0;mpry:0,0,0;pitch:0;roll:0;yaw:0;vgx:0;vgy:0;vgz:0;templ:90;temph:92;tof:10;h:0;bat:83;baro:98.93;time:0;agx:0.00;agy:-11.00;agz:-1000.00;
mid:64;x:0;y:0;z:0;mpry:0,0,0;pitch:0;roll:0;yaw:0;vgx:0;vgy:0;vgz:0;templ:90;temph:92;tof:10;h:0;bat:83;baro:99.14;time:0;agx:1.00;agy:-13.00;agz:-998.00;
mid:64;x:0;y:0;z:0;mpry:0,0,0;pitch:0;roll:0;yaw:0;vgx:0;vgy:0;vgz:0;templ:90;temph:93;tof:10;h:0;bat:83;baro:98.85;time:0;agx:-1.00;agy:-13.00;agz:-1000.00;
mid:64;x:0;y:0;z:0;mpry:0,0,0;pitch:0;roll:0;yaw:0;vgx:0;vgy:0;vgz:0;templ:90;temph:93;tof:10;h:0;bat:83;baro:98.58;time:0;agx:0.00;agy:-12.00;agz:-998.00;
mid:64;x:0;y:0;z:0;mpry:0,0,0;pitch:0;roll:0;yaw:0;vgx:0;vgy:0;vgz:0;templ:90;temph:93;tof:10;h:0;bat:83;baro:98.84;time:0;agx:0.00;agy:-12.00;agz:-999.00;
mid:257;x:0;y:0;z:0;mpry:0,0,0;pitch:0;roll:0;yaw:0;vgx:0;vgy:0;vgz:0;templ:90;temph:93;tof:10;h:0;bat:83;baro:99.09;time:0;agx:2.00;agy:-12.00;agz:-1001.00;
mid:257;x:0;y:0;z:0;mpry:0,0,0;pitch:0;roll:0;yaw:0;vgx:0;vgy:0;vgz:0;templ:90;temph:93;tof:10;h:0;bat:83;baro:99.29;time:0;agx:0.00;agy:-13.00;agz:-1001.00;
mid:257;x:0;y:0;z:0;mpry:0,0,0;pitch:0;roll:0;yaw:0;vgx:0;vgy:0;vgz:0;templ:90;temph:93;tof:10;h:0;bat:83;baro:98.97;time:0;agx:0.00;agy:-11.00;agz:-999.00;
mid:257;x:0;y:0;z:0;mpry:0,0,0;pitch:0;roll:0;yaw:0;vgx:0;vgy:0;vgz:0;templ:90;temph:93;tof:10;h:0;bat:83;baro:98.70;time:0;agx:0.00;agy:-12.00;agz:-1001.00;
mid:257;x:0;y:0;z:0;mpry:0,0,0;pitch:0;roll:0;yaw:0;vgx:0;vgy:0;vgz:0;templ:90;temph:93;tof:10;h:0;bat:83;baro:98.94;time:0;agx:0.00;agy:-12.00;agz:-997.00;
mid:257;x:0;y:0;z:0;mpry:0,0,0;pitch:0;roll:0;yaw:0;vgx:0;vgy:0;vgz:0;templ:90;temph:93;tof:10;h:0;bat:83;baro:98.66;time:0;agx:1.00;agy:-13.00;agz:-998.00;
mid:257;x:0;y:0;z:0;mpry:0,0,0;pitch:0;roll:0;yaw:0;vgx:0;vgy:0;vgz:0;templ:90;temph:93;tof:10;h:0;bat:83;baro:98.86;time:0;agx:0.00;agy:-13.00;agz:-998.00;
mid:257;x:0;y:0;z:0;mpry:0,0,0;pitch:0;roll:0;yaw:0;vgx:0;vgy:0;vgz:0;templ:90;temph:93;tof:10;h:0;bat:83;baro:99.08;time:0;agx:0.00;agy:-13.00;agz:-999.00;
mid:257;x:0;y:0;z:0;mpry:0,0,0;pitch:0;roll:0;yaw:0;vgx:0;vgy:0;vgz:0;templ:90;temph:93;tof:10;h:0;bat:83;baro:98.64;time:0;agx:0.00;agy:-12.00;agz:-1000.00;
mid:257;x:0;y:0;z:0;mpry:0,0,0;pitch:0;roll:0;yaw:0;vgx:0;vgy:0;vgz:0;templ:90;temph:93;tof:10;h:0;bat:83;baro:98.89;time:0;agx:3.00;agy:-11.00;agz:-999.00;
mid:257;x:0;y:0;z:0;mpry:0,0,0;pitch:0;roll:0;yaw:0;vgx:0;vgy:0;vgz:0;templ:90;temph:93;tof:10;h:0;bat:83;baro:99.01;time:0;agx:0.00;agy:-12.00;agz:-998.00;
mid:257;x:0;y:0;z:0;mpry:0,0,0;pitch:0;roll:0;yaw:0;vgx:0;vgy:0;vgz:0;templ:90;temph:93;tof:10;h:0;bat:83;baro:98.84;time:0;agx:-1.00;agy:-14.00;agz:-1002.00;
mid:257;x:0;y:0;z:0;mpry:0,0,0;pitch:0;roll:0;yaw:0;vgx:0;vgy:0;vgz:0;templ:90;temph:93;tof:10;h:0;bat:83;baro:98.96;time:0;agx:0.00;agy:-12.00;agz:-998.00;
mid:257;x:0;y:0;z:0;mpry:0,0,0;pitch:0;roll:0;yaw:0;vgx:0;vgy:0;vgz:0;templ:90;temph:93;tof:10;h:0;bat:83;baro:98.94;time:0;agx:1.00;agy:-13.00;agz:-999.00;
mid:257;x:0;y:0;z:0;mpry:0,0,0;pitch:0;roll:0;yaw:0;vgx:0;vgy:0;vgz:0;templ:90;temph:93;tof:10;h:0;bat:83;baro:98.78;time:0;agx:0.00;agy:-15.00;agz:-1000.00;
mid:257;x:0;y:0;z:0;mpry:0,0,0;pitch:0;roll:0;yaw:0;vgx:0;vgy:0;vgz:0;templ:90;temph:93;tof:10;h:0;bat:83;baro:99.03;time:0;agx:-1.00;agy:-13.00;agz:-1004.00;
mid:257;x:0;y:0;z:0;mpry:0,0,0;pitch:0;roll:0;yaw:0;vgx:0;vgy:0;vgz:0;templ:90;temph:93;tof:10;h:0;bat:83;baro:98.97;time:0;agx:-3.00;agy:-13.00;agz:-1000.00;
mid:257;x:0;y:0;z:0;mpry:0,0,0;pitch:0;roll:0;yaw:0;vgx:0;vgy:0;vgz:0;templ:90;temph:93;tof:10;h:0;bat:83;baro:98.99;time:0;agx:-1.00;agy:-13.00;agz:-1002.00;
mid:257;x:0;y:0;z:0;mpry:0,0,0;pitch:0;roll:0;yaw:0;vgx:0;vgy:0;vgz:0;templ:90;temph:93;tof:10;h:0;bat:83;baro:99.17;time:0;agx:0.00;agy:-13.00;agz:-1001.00;
mid:257;x:0;y:0;z:0;mpry:0,0,0;pitch:0;roll:0;yaw:0;vgx:0;vgy:0;vgz:0;templ:90;temph:93;tof:10;h:0;bat:83;baro:98.76;time:0;agx:0.00;agy:-12.00;agz:-999.00;
mid:257;x:0;y:0;z:0;mpry:0,0,0;pitch:0;roll:0;yaw:0;vgx:0;vgy:0;vgz:0;templ:90;temph:93;tof:10;h:0;bat:83;baro:98.98;time:0;agx:1.00;agy:-13.00;agz:-998.00;
mid:257;x:0;y:0;z:0;mpry:0,0,0;pitch:0;roll:0;yaw:0;vgx:0;vgy:0;vgz:0;templ:90;temph:93;tof:10;h:0;bat:83;baro:99.00;time:0;agx:-2.00;agy:-12.00;agz:-1001.00;
mid:257;x:0;y:0;z:0;mpry:0,0,0;pitch:0;roll:0;yaw:0;vgx:0;vgy:0;vgz:0;templ:90;temph:93;tof:10;h:0;bat:83;baro:98.53;time:0;agx:0.00;agy:-12.00;agz:-997.00;
mid:257;x:0;y:0;z:0;mpry:0,0,0;pitch:0;roll:0;yaw:0;vgx:0;vgy:0;vgz:0;templ:90;temph:93;tof:10;h:0;bat:83;baro:98.56;time:0;agx:-3.00;agy:-14.00;agz:-998.00;
mid:257;x:0;y:0;z:0;mpry:0,0,0;pitch:0;roll:0;yaw:0;vgx:0;vgy:0;vgz:0;templ:90;temph:93;tof:10;h:0;bat:83;baro:98.94;time:0;agx:0.00;agy:-13.00;agz:-999.00;
mid:257;x:0;y:0;z:0;mpry:0,0,0;pitch:0;roll:0;yaw:0;vgx:0;vgy:0;vgz:0;templ:90;temph:93;tof:10;h:0;bat:83;baro:98.75;time:0;agx:-2.00;agy:-11.00;agz:-998.00;
mid:257;x:0;y:0;z:0;mpry:0,0,0;pitch:0;roll:0;yaw:0;vgx:0;vgy:0;vgz:0;templ:90;temph:93;tof:10;h:0;bat:83;baro:98.47;time:0;agx:0.00;agy:-12.00;agz:-1002.00;
mid:257;x:0;y:0;z:0;mpry:0,0,0;pitch:0;roll:0;yaw:0;vgx:0;vgy:0;vgz:0;templ:91;temph:93;tof:10;h:0;bat:83;baro:98.85;time:0;agx:0.00;agy:-12.00;agz:-999.00;
mid:64;x:0;y:0;z:0;mpry:0,0,0;pitch:0;roll:0;yaw:0;vgx:0;vgy:0;vgz:0;templ:91;temph:93;tof:10;h:0;bat:83;baro:98.83;time:0;agx:4.00;agy:-13.00;agz:-999.00;
mid:64;x:0;y:0;z:0;mpry:0,0,0;pitch:0;roll:0;yaw:0;vgx:0;vgy:0;vgz:0;templ:91;temph:93;tof:10;h:0;bat:83;baro:98.65;time:0;agx:2.00;agy:-11.00;agz:-999.00;
mid:64;x:0;y:0;z:0;mpry:0,0,0;pitch:0;roll:0;yaw:0;vgx:0;vgy:0;vgz:0;templ:91;temph:93;tof:10;h:0;bat:83;baro:98.64;time:0;agx:0.00;agy:-10.00;agz:-999.00;
mid:64;x:0;y:0;z:0;mpry:0,0,0;pitch:0;roll:0;yaw:0;vgx:0;vgy:0;vgz:0;templ:91;temph:93;tof:10;h:0;bat:83;baro:98.64;time:0;agx:0.00;agy:-10.00;agz:-1000.00;
mid:64;x:0;y:0;z:0;mpry:0,0,0;pitch:0;roll:0;yaw:0;vgx:0;vgy:0;vgz:0;templ:91;temph:93;tof:10;h:0;bat:83;baro:98.99;time:0;agx:0.00;agy:-11.00;agz:-1002.00;
mid:64;x:0;y:0;z:0;mpry:0,0,0;pitch:0;roll:0;yaw:0;vgx:0;vgy:0;vgz:0;templ:91;temph:93;tof:10;h:0;bat:83;baro:98.54;time:0;agx:1.00;agy:-11.00;agz:-999.00;
mid:8;x:0;y:0;z:0;mpry:0,0,0;pitch:0;roll:0;yaw:0;vgx:0;vgy:0;vgz:0;templ:91;temph:93;tof:10;h:0;bat:83;baro:98.64;time:0;agx:1.00;agy:-12.00;agz:-1001.00;
mid:8;x:0;y:0;z:0;mpry:0,0,0;pitch:0;roll:0;yaw:0;vgx:0;vgy:0;vgz:0;templ:91;temph:93;tof:10;h:0;bat:83;baro:98.53;time:0;agx:-1.00;agy:-13.00;agz:-998.00;
mid:8;x:0;y:0;z:0;mpry:0,0,0;pitch:0;roll:0;yaw:0;vgx:0;vgy:0;vgz:0;templ:91;temph:93;tof:10;h:0;bat:83;baro:98.49;time:0;agx:1.00;agy:-13.00;agz:-997.00;
mid:8;x:0;y:0;z:0;mpry:0,0,0;pitch:0;roll:0;yaw:0;vgx:0;vgy:0;vgz:0;templ:91;temph:92;tof:10;h:0;bat:83;baro:98.85;time:0;agx:0.00;agy:-12.00;agz:-998.00;
mid:8;x:0;y:0;z:0;mpry:0,0,0;pitch:0;roll:0;yaw:0;vgx:0;vgy:0;vgz:0;templ:91;temph:92;tof:10;h:0;bat:83;baro:98.74;time:0;agx:0.00;agy:-10.00;agz:-999.00;
mid:8;x:0;y:0;z:0;mpry:0,0,0;pitch:0;roll:0;yaw:0;vgx:0;vgy:0;vgz:0;templ:91;temph:92;tof:10;h:0;bat:83;baro:98.59;time:0;agx:-1.00;agy:-14.00;agz:-997.00;
mid:8;x:0;y:0;z:0;mpry:0,0,0;pitch:0;roll:0;yaw:0;vgx:0;vgy:0;vgz:0;templ:91;temph:92;tof:10;h:0;bat:83;baro:98.87;time:0;agx:0.00;agy:-12.00;agz:-998.00;
mid:8;x:0;y:0;z:0;mpry:0,0,0;pitch:0;roll:0;yaw:0;vgx:0;vgy:0;vgz:0;templ:91;temph:92;tof:10;h:0;bat:83;baro:98.74;time:0;agx:1.00;agy:-12.00;agz:-999.00;
mid:8;x:0;y:0;z:0;mpry:0,0,0;pitch:0;roll:0;yaw:0;vgx:0;vgy:0;vgz:0;templ:91;temph:92;tof:10;h:0;bat:83;baro:98.53;time:0;agx:0.00;agy:-12.00;agz:-1001.00;
mid:8;x:0;y:0;z:0;mpry:0,0,0;pitch:0;roll:0;yaw:0;vgx:0;vgy:0;vgz:0;templ:91;temph:92;tof:10;h:0;bat:83;baro:98.62;time:0;agx:0.00;agy:-11.00;agz:-999.00;
mid:8;x:0;y:0;z:0;mpry:0,0,0;pitch:0;roll:0;yaw:0;vgx:0;vgy:0;vgz:0;templ:91;temph:92;tof:10;h:0;bat:83;baro:98.68;time:0;agx:0.00;agy:-12.00;agz:-998.00;
mid:8;x:0;y:0;z:0;mpry:0,0,0;pitch:0;roll:0;yaw:0;vgx:0;vgy:0;vgz:0;templ:91;temph:92;tof:10;h:0;bat:83;baro:98.57;time:0;agx:0.00;agy:-12.00;agz:-998.00;
mid:8;x:0;y:0;z:0;mpry:0,0,0;pitch:0;roll:0;yaw:0;vgx:0;vgy:0;vgz:0;templ:91;temph:92;tof:10;h:0;bat:83;baro:98.76;time:0;agx:0.00;agy:-13.00;agz:-999.00;
mid:8;x:0;y:0;z:0;mpry:0,0,0;pitch:0;roll:0;yaw:0;vgx:0;vgy:0;vgz:0;templ:91;temph:93;tof:10;h:0;bat:83;baro:98.86;time:0;agx:3.00;agy:-10.00;agz:-1000.00;
mid:8;x:0;y:0;z:0;mpry:0,0,0;pitch:0;roll:0;yaw:0;vgx:0;vgy:0;vgz:0;templ:91;temph:93;tof:10;h:0;bat:83;baro:98.52;time:0;agx:0.00;agy:-12.00;agz:-999.00;
mid:8;x:0;y:0;z:0;mpry:0,0,0;pitch:0;roll:0;yaw:0;vgx:0;vgy:0;vgz:0;templ:91;temph:93;tof:10;h:0;bat:83;baro:98.79;time:0;agx:0.00;agy:-11.00;agz:-1003.00;
mid:8;x:0;y:0;z:0;mpry:0,0,0;pitch:0;roll:0;yaw:0;vgx:0;vgy:0;vgz:0;templ:91;temph:93;tof:10;h:0;bat:83;baro:98.79;time:0;agx:1.00;agy:-13.00;agz:-997.00;
mid:8;x:0;y:0;z:0;mpry:0,0,0;pitch:0;roll:0;yaw:0;vgx:0;vgy:0;vgz:0;templ:91;temph:93;tof:10;h:0;bat:83;baro:98.76;time:0;agx:1.00;agy:-13.00;agz:-1001.00;
mid:8;x:0;y:0;z:0;mpry:0,0,0;pitch:0;roll:0;yaw:0;vgx:0;vgy:0;vgz:0;templ:91;temph:93;tof:10;h:0;bat:83;baro:98.87;time:0;agx:3.00;agy:-11.00;agz:-997.00;
mid:8;x:0;y:0;z:0;mpry:0,0,0;pitch:0;roll:0;yaw:0;vgx:0;vgy:0;vgz:0;templ:91;temph:93;tof:10;h:0;bat:83;baro:98.67;time:0;agx:-2.00;agy:-12.00;agz:-998.00;
mid:8;x:0;y:0;z:0;mpry:0,0,0;pitch:0;roll:0;yaw:0;vgx:0;vgy:0;vgz:0;templ:91;temph:93;tof:10;h:0;bat:83;baro:98.99;time:0;agx:0.00;agy:-10.00;agz:-1002.00;
mid:8;x:0;y:0;z:0;mpry:0,0,0;pitch:0;roll:0;yaw:0;vgx:0;vgy:0;vgz:0;templ:91;temph:93;tof:10;h:0;bat:83;baro:98.74;time:0;agx:0.00;agy:-11.00;agz:-1002.00;
mid:8;x:0;y:0;z:0;mpry:0,0,0;pitch:0;roll:0;yaw:0;vgx:0;vgy:0;vgz:0;templ:91;temph:93;tof:10;h:0;bat:83;baro:98.59;time:0;agx:0.00;agy:-14.00;agz:-1000.00;
mid:8;x:0;y:0;z:0;mpry:0,0,0;pitch:0;roll:0;yaw:0;vgx:0;vgy:0;vgz:0;templ:90;temph:93;tof:10;h:0;bat:83;baro:98.81;time:0;agx:0.00;agy:-11.00;agz:-1000.00;
mid:8;x:0;y:0;z:0;mpry:0,0,0;pitch:0;roll:0;yaw:0;vgx:0;vgy:0;vgz:0;templ:90;temph:93;tof:10;h:0;bat:83;baro:98.64;time:0;agx:0.00;agy:-12.00;agz:-1001.00;
mid:8;x:0;y:0;z:0;mpry:0,0,0;pitch:0;roll:0;yaw:0;vgx:0;vgy:0;vgz:0;templ:90;temph:93;tof:10;h:0;bat:83;baro:98.67;time:0;agx:0.00;agy:-12.00;agz:-999.00;
mid:8;x:0;y:0;z:0;mpry:0,0,0;pitch:0;roll:0;yaw:0;vgx:0;vgy:0;vgz:0;templ:90;temph:93;tof:10;h:0;bat:83;baro:98.99;time:0;agx:0.00;agy:-11.00;agz:-1000.00;
mid:8;x:0;y:0;z:0;mpry:0,0,0;pitch:0;roll:0;yaw:0;vgx:0;vgy:0;vgz:0;templ:90;temph:93;tof:10;h:0;bat:83;baro:98.96;time:0;agx:3.00;agy:-13.00;agz:-999.00;
mid:8;x:0;y:0;z:0;mpry:0,0,0;pitch:0;roll:0;yaw:0;vgx:0;vgy:0;vgz:0;templ:90;temph:93;tof:10;h:0;bat:83;baro:98.45;time:0;agx:0.00;agy:-11.00;agz:-998.00;
mid:8;x:0;y:0;z:0;mpry:0,0,0;pitch:0;roll:0;yaw:0;vgx:0;vgy:0;vgz:0;templ:90;temph:93;tof:10;h:0;bat:83;baro:98.89;time:0;agx:0.00;agy:-13.00;agz:-997.00;
mid:8;x:0;y:0;z:0;mpry:0,0,0;pitch:0;roll:0;yaw:0;vgx:0;vgy:0;vgz:0;templ:90;temph:93;tof:10;h:0;bat:83;baro:98.80;time:0;agx:1.00;agy:-14.00;agz:-998.00;
mid:8;x:0;y:0;z:0;mpry:0,0,0;pitch:0;roll:0;yaw:0;vgx:0;vgy:0;vgz:0;templ:90;temph:93;tof:10;h:0;bat:83;baro:98.72;time:0;agx:0.00;agy:-12.00;agz:-1001.00;
mid:8;x:0;y:0;z:0;mpry:0,0,0;pitch:0;roll:0;yaw:0;vgx:0;vgy:0;vgz:0;templ:90;temph:93;tof:10;h:0;bat:83;baro:98.87;time:0;agx:0.00;agy:-13.00;agz:-1002.00;
mid:8;x:0;y:0;z:0;mpry:0,0,0;pitch:0;roll:0;yaw:0;vgx:0;vgy:0;vgz:0;templ:90;temph:93;tof:10;h:0;bat:83;baro:99.08;time:0;agx:0.00;agy:-11.00;agz:-1000.00;
mid:8;x:0;y:0;z:0;mpry:0,0,0;pitch:0;roll:0;yaw:0;vgx:0;vgy:0;vgz:0;templ:90;temph:93;tof:10;h:0;bat:83;baro:98.73;time:0;agx:2.00;agy:-12.00;agz:-1000.00;
mid:8;x:0;y:0;z:0;mpry:0,0,0;pitch:0;roll:0;yaw:0;vgx:0;vgy:0;vgz:0;templ:90;temph:93;tof:10;h:0;bat:83;baro:98.73;time:0;agx:0.00;agy:-11.00;agz:-1001.00;
mid:8;x:0;y:0;z:0;mpry:0,0,0;pitch:0;roll:0;yaw:0;vgx:0;vgy:0;vgz:0;templ:90;temph:93;tof:10;h:0;bat:83;baro:98.53;time:0;agx:-1.00;agy:-10.00;agz:-998.00;
mid:8;x:0;y:0;z:0;mpry:0,0,0;pitch:0;roll:0;yaw:0;vgx:0;vgy:0;vgz:0;templ:90;temph:93;tof:10;h:0;bat:83;baro:98.84;time:0;agx:0.00;agy:-11.00;agz:-998.00;
mid:8;x:0;y:0;z:0;mpry:0,0,0;pitch:0;roll:0;yaw:0;vgx:0;vgy:0;vgz:0;templ:90;temph:93;tof:10;h:0;bat:83;baro:98.57;time:0;agx:0.00;agy:-12.00;agz:-1000.00;
mid:8;x:0;y:0;z:0;mpry:0,0,0;pitch:0;roll:0;yaw:0;vgx:0;vgy:0;vgz:0;templ:90;temph:93;tof:10;h:0;bat:83;baro:98.43;time:0;agx:0.00;agy:-13.00;agz:-1001.00;
mid:8;x:0;y:0;z:0;mpry:0,0,0;pitch:0;roll:0;yaw:0;vgx:0;vgy:0;vgz:0;templ:90;temph:93;tof:10;h:0;bat:83;baro:98.68;time:0;agx:0.00;agy:-13.00;agz:-1001.00;
mid:8;x:0;y:0;z:0;mpry:0,0,0;pitch:0;roll:0;yaw:0;vgx:0;vgy:0;vgz:0;templ:90;temph:93;tof:10;h:0;bat:83;baro:98.59;time:0;agx:0.00;agy:-13.00;agz:-1000.00;
mid:8;x:0;y:0;z:0;mpry:0,0,0;pitch:0;roll:0;yaw:0;vgx:0;vgy:0;vgz:0;templ:90;temph:93;tof:10;h:0;bat:83;baro:98.61;time:0;agx:0.00;agy:-13.00;agz:-1000.00;
mid:8;x:0;y:0;z:0;mpry:0,0,0;pitch:0;roll:0;yaw:0;vgx:0;vgy:0;vgz:0;templ:90;temph:93;tof:10;h:0;bat:83;baro:98.85;time:0;agx:0.00;agy:-11.00;agz:-1000.00;
mid:8;x:0;y:0;z:0;mpry:0,0,0;pitch:0;roll:0;yaw:0;vgx:0;vgy:0;vgz:0;templ:90;temph:93;tof:10;h:0;bat:83;baro:98.86;time:0;agx:-3.00;agy:-12.00;agz:-1002.00;
mid:8;x:0;y:0;z:0;mpry:0,0,0;pitch:0;roll:0;yaw:0;vgx:0;vgy:0;vgz:0;templ:90;temph:93;tof:10;h:0;bat:83;baro:98.65;time:0;agx:0.00;agy:-11.00;agz:-999.00;
mid:8;x:0;y:0;z:0;mpry:0,0,0;pitch:0;roll:0;yaw:0;vgx:0;vgy:0;vgz:0;templ:90;temph:93;tof:10;h:0;bat:83;baro:98.55;time:0;agx:0.00;agy:-12.00;agz:-1001.00;
mid:8;x:0;y:0;z:0;mpry:0,0,0;pitch:0;roll:0;yaw:0;vgx:0;vgy:0;vgz:0;templ:90;temph:93;tof:10;h:0;bat:83;baro:98.77;time:0;agx:0.00;agy:-13.00;agz:-999.00;
mid:8;x:0;y:0;z:0;mpry:0,0,0;pitch:0;roll:0;yaw:0;vgx:0;vgy:0;vgz:0;templ:90;temph:93;tof:10;h:0;bat:83;baro:98.79;time:0;agx:-1.00;agy:-10.00;agz:-996.00;
mid:8;x:0;y:0;z:0;mpry:0,0,0;pitch:0;roll:0;yaw:0;vgx:0;vgy:0;vgz:0;templ:90;temph:93;tof:10;h:0;bat:83;baro:98.74;time:0;agx:0.00;agy:-11.00;agz:-1001.00;
mid:8;x:0;y:0;z:0;mpry:0,0,0;pitch:0;roll:0;yaw:0;vgx:0;vgy:0;vgz:0;templ:90;temph:93;tof:10;h:0;bat:83;baro:98.67;time:0;agx:1.00;agy:-11.00;agz:-998.00;
mid:8;x:0;y:0;z:0;mpry:0,0,0;pitch:0;roll:0;yaw:0;vgx:0;vgy:0;vgz:0;templ:90;temph:93;tof:10;h:0;bat:83;baro:98.52;time:0;agx:-1.00;agy:-13.00;agz:-999.00;
mid:8;x:0;y:0;z:0;mpry:0,0,0;pitch:0;roll:0;yaw:0;vgx:0;vgy:0;vgz:0;templ:90;temph:93;tof:10;h:0;bat:83;baro:98.70;time:0;agx:0.00;agy:-13.00;agz:-1000.00;
mid:8;x:0;y:0;z:0;mpry:0,0,0;pitch:0;roll:0;yaw:0;vgx:0;vgy:0;vgz:0;templ:92;temph:94;tof:10;h:0;bat:83;baro:98.44;time:0;agx:1.00;agy:-11.00;agz:-998.00;
mid:8;x:0;y:0;z:0;mpry:0,0,0;pitch:0;roll:0;yaw:0;vgx:0;vgy:0;vgz:0;templ:92;temph:94;tof:10;h:0;bat:83;baro:98.67;time:0;agx:-1.00;agy:-14.00;agz:-998.00;
mid:8;x:0;y:0;z:0;mpry:0,0,0;pitch:0;roll:0;yaw:0;vgx:0;vgy:0;vgz:0;templ:92;temph:94;tof:10;h:0;bat:83;baro:98.71;time:0;agx:0.00;agy:-11.00;agz:-999.00;
mid:8;x:0;y:0;z:0;mpry:0,0,0;pitch:0;roll:0;yaw:0;vgx:0;vgy:0;vgz:0;templ:92;temph:94;tof:10;h:0;bat:83;baro:98.57;time:0;agx:2.00;agy:-9.00;agz:-1001.00;
mid:8;x:0;y:0;z:0;mpry:0,0,0;pitch:0;roll:0;yaw:0;vgx:0;vgy:0;vgz:0;templ:92;temph:94;tof:10;h:0;bat:83;baro:98.47;time:0;agx:0.00;agy:-11.00;agz:-1000.00;
mid:8;x:0;y:0;z:0;mpry:0,0,0;pitch:0;roll:0;yaw:0;vgx:0;vgy:0;vgz:0;templ:92;temph:94;tof:10;h:0;bat:83;baro:98.54;time:0;agx:0.00;agy:-13.00;agz:-1000.00;
mid:8;x:0;y:0;z:0;mpry:0,0,0;pitch:0;roll:0;yaw:0;vgx:0;vgy:0;vgz:0;templ:92;temph:94;tof:10;h:0;bat:83;baro:98.45;time:0;agx:-3.00;agy:-14.00;agz:-999.00;
mid:8;x:0;y:0;z:0;mpry:0,0,0;pitch:0;roll:0;yaw:0;vgx:0;vgy:0;vgz:0;templ:92;temph:94;tof:10;h:0;bat:83;baro:98.73;time:0;agx:2.00;agy:-11.00;agz:-999.00;
mid:8;x:0;y:0;z:0;mpry:0,0,0;pitch:0;roll:0;yaw:0;vgx:0;vgy:0;vgz:0;templ:92;temph:94;tof:10;h:0;bat:83;baro:98.66;time:0;agx:-3.00;agy:-13.00;agz:-1001.00;
mid:8;x:0;y:0;z:0;mpry:0,0,0;pitch:0;roll:0;yaw:0;vgx:0;vgy:0;vgz:0;templ:92;temph:94;tof:10;h:0;bat:83;baro:98.83;time:0;agx:1.00;agy:-13.00;agz:-997.00;
mid:8;x:0;y:0;z:0;mpry:0,0,0;pitch:0;roll:0;yaw:0;vgx:0;vgy:0;vgz:0;templ:91;temph:93;tof:10;h:0;bat:83;baro:98.69;time:0;agx:0.00;agy:-13.00;agz:-1000.00;
mid:8;x:0;y:0;z:0;mpry:0,0,0;pitch:0;roll:0;yaw:0;vgx:0;vgy:0;vgz:0;templ:91;temph:93;tof:10;h:0;bat:83;baro:98.74;time:0;agx:3.00;agy:-9.00;agz:-999.00;
mid:8;x:0;y:0;z:0;mpry:0,0,0;pitch:0;roll:0;yaw:0;vgx:0;vgy:0;vgz:0;templ:91;temph:93;tof:10;h:0;bat:83;baro:98.61;time:0;agx:0.00;agy:-12.00;agz:-997.00;
mid:8;x:0;y:0;z:0;mpry:0,0,0;pitch:0;roll:0;yaw:0;vgx:0;vgy:0;vgz:0;templ:91;temph:93;tof:10;h:0;bat:83;baro:98.73;time:0;agx:-1.00;agy:-13.00;agz:-998.00;
mid:8;x:0;y:0;z:0;mpry:0,0,0;pitch:0;roll:0;yaw:0;vgx:0;vgy:0;vgz:0;templ:91;temph:93;tof:10;h:0;bat:83;baro:98.87;time:0;agx:0.00;agy:-9.00;agz:-996.00;
mid:8;x:0;y:0;z:0;mpry:0,0,0;pitch:0;roll:0;yaw:0;vgx:0;vgy:0;vgz:0;templ:91;temph:93;tof:10;h:0;bat:83;baro:98.73;time:0;agx:0.00;agy:-9.00;agz:-1001.00;
mid:8;x:0;y:0;z:0;mpry:0,0,0;pitch:0;roll:0;yaw:0;vgx:0;vgy:0;vgz:0;templ:91;temph:93;tof:10;h:0;bat:83;baro:98.84;time:0;agx:1.00;agy:-11.00;agz:-998.00;
mid:8;x:0;y:0;z:0;mpry:0,0,0;pitch:0;roll:0;yaw:0;vgx:0;vgy:0;vgz:0;templ:91;temph:93;tof:10;h:0;bat:83;baro:98.67;time:0;agx:0.00;agy:-12.00;agz:-1000.00;
mid:8;x:0;y:0;z:0;mpry:0,0,0;pitch:0;roll:0;yaw:0;vgx:0;vgy:0;vgz:0;templ:91;temph:93;tof:10;h:0;bat:83;baro:98.51;time:0;agx:2.00;agy:-12.00;agz:-1000.00;
mid:8;x:0;y:0;z:0;mpry:0,0,0;pitch:0;roll:0;yaw:0;vgx:0;vgy:0;vgz:0;templ:91;temph:93;tof:10;h:0;bat:83;baro:98.45;time:0;agx:4.00;agy:-10.00;agz:-999.00;
mid:8;x:0;y:0;z:0;mpry:0,0,0;pitch:0;roll:0;yaw:0;vgx:0;vgy:0;vgz:0;templ:91;temph:94;tof:10;h:0;bat:83;baro:98.74;time:0;agx:0.00;agy:-13.00;agz:-996.00;
mid:8;x:0;y:0;z:0;mpry:0,0,0;pitch:0;roll:0;yaw:0;vgx:0;vgy:0;vgz:0;templ:91;temph:94;tof:10;h:0;bat:83;baro:98.95;time:0;agx:5.00;agy:-9.00;agz:-1001.00;
mid:8;x:0;y:0;z:0;mpry:0,0,0;pitch:0;roll:0;yaw:0;vgx:0;vgy:0;vgz:0;templ:91;temph:94;tof:10;h:0;bat:83;baro:98.63;time:0;agx:0.00;agy:-15.00;agz:-1000.00;
mid:8;x:0;y:0;z:0;mpry:0,0,0;pitch:0;roll:0;yaw:0;vgx:0;vgy:0;vgz:0;templ:91;temph:94;tof:10;h:0;bat:83;baro:98.84;time:0;agx:0.00;agy:-10.00;agz:-999.00;
mid:8;x:0;y:0;z:0;mpry:0,0,0;pitch:0;roll:0;yaw:0;vgx:0;vgy:0;vgz:0;templ:91;temph:94;tof:10;h:0;bat:83;baro:98.81;time:0;agx:2.00;agy:-12.00;agz:-998.00;
mid:8;x:0;y:0;z:0;mpry:0,0,0;pitch:0;roll:0;yaw:0;vgx:0;vgy:0;vgz:0;templ:91;temph:94;tof:10;h:0;bat:83;baro:98.92;time:0;agx:1.00;agy:-10.00;agz:-998.00;
mid:8;x:0;y:0;z:0;mpry:0,0,0;pitch:0;roll:0;yaw:0;vgx:0;vgy:0;vgz:0;templ:91;temph:94;tof:10;h:0;bat:83;baro:98.81;time:0;agx:1.00;agy:-13.00;agz:-998.00;
mid:8;x:0;y:0;z:0;mpry:0,0,0;pitch:0;roll:0;yaw:0;vgx:0;vgy:0;vgz:0;templ:91;temph:94;tof:10;h:0;bat:83;baro:98.67;time:0;agx:-2.00;agy:-16.00;agz:-1002.00;
mid:8;x:0;y:0;z:0;mpry:0,0,0;pitch:0;roll:0;yaw:0;vgx:0;vgy:0;vgz:0;templ:91;temph:94;tof:10;h:0;bat:83;baro:98.45;time:0;agx:2.00;agy:-9.00;agz:-998.00;
mid:8;x:0;y:0;z:0;mpry:0,0,0;pitch:0;roll:0;yaw:0;vgx:0;vgy:0;vgz:0;templ:91;temph:94;tof:10;h:0;bat:83;baro:98.69;time:0;agx:0.00;agy:-10.00;agz:-998.00;
mid:8;x:0;y:0;z:0;mpry:0,0,0;pitch:0;roll:0;yaw:0;vgx:0;vgy:0;vgz:0;templ:91;temph:95;tof:10;h:0;bat:83;baro:98.80;time:0;agx:0.00;agy:-7.00;agz:-999.00;
mid:8;x:0;y:0;z:0;mpry:0,0,0;pitch:0;roll:0;yaw:0;vgx:0;vgy:0;vgz:0;templ:91;temph:95;tof:10;h:0;bat:83;baro:98.88;time:0;agx:2.00;agy:-2.00;agz:-1006.00;
mid:8;x:0;y:0;z:0;mpry:0,0,0;pitch:0;roll:0;yaw:0;vgx:0;vgy:0;vgz:0;templ:91;temph:95;tof:10;h:0;bat:83;baro:98.93;time:0;agx:11.00;agy:-3.00;agz:-995.00;
mid:8;x:0;y:0;z:0;mpry:0,0,0;pitch:0;roll:0;yaw:0;vgx:0;vgy:0;vgz:0;templ:91;temph:95;tof:10;h:0;bat:83;baro:98.56;time:0;agx:8.00;agy:-11.00;agz:-997.00;
mid:8;x:0;y:0;z:0;mpry:0,0,0;pitch:0;roll:0;yaw:0;vgx:0;vgy:0;vgz:0;templ:91;temph:95;tof:10;h:0;bat:83;baro:98.70;time:0;agx:10.00;agy:-1.00;agz:-986.00;
mid:8;x:0;y:0;z:0;mpry:0,0,0;pitch:0;roll:0;yaw:0;vgx:0;vgy:0;vgz:0;templ:91;temph:95;tof:10;h:0;bat:83;baro:98.72;time:0;agx:9.00;agy:-14.00;agz:-998.00;
mid:8;x:0;y:0;z:0;mpry:0,0,0;pitch:0;roll:0;yaw:0;vgx:0;vgy:0;vgz:0;templ:91;temph:95;tof:10;h:0;bat:83;baro:98.37;time:0;agx:7.00;agy:-5.00;agz:-1009.00;
mid:8;x:0;y:0;z:0;mpry:0,0,0;pitch:0;roll:0;yaw:0;vgx:0;vgy:0;vgz:0;templ:91;temph:95;tof:10;h:0;bat:83;baro:98.56;time:0;agx:15.00;agy:3.00;agz:-1030.00;
mid:8;x:0;y:0;z:0;mpry:0,0,0;pitch:0;roll:0;yaw:0;vgx:0;vgy:0;vgz:0;templ:91;temph:95;tof:10;h:0;bat:83;baro:98.49;time:0;agx:20.00;agy:-8.00;agz:-971.00;
mid:8;x:0;y:0;z:0;mpry:0,0,0;pitch:0;roll:0;yaw:0;vgx:0;vgy:0;vgz:0;templ:91;temph:95;tof:10;h:0;bat:83;baro:98.55;time:0;agx:14.00;agy:-5.00;agz:-1016.00;
mid:8;x:0;y:0;z:0;mpry:0,0,0;pitch:0;roll:0;yaw:0;vgx:0;vgy:0;vgz:0;templ:91;temph:93;tof:10;h:0;bat:83;baro:98.78;time:0;agx:18.00;agy:-7.00;agz:-999.00;
mid:8;x:0;y:0;z:0;mpry:0,0,0;pitch:0;roll:0;yaw:0;vgx:0;vgy:0;vgz:0;templ:91;temph:93;tof:10;h:0;bat:83;baro:98.75;time:0;agx:14.00;agy:-13.00;agz:-990.00;
mid:8;x:0;y:0;z:0;mpry:0,0,0;pitch:0;roll:0;yaw:0;vgx:0;vgy:0;vgz:0;templ:91;temph:93;tof:10;h:0;bat:83;baro:98.95;time:0;agx:7.00;agy:-10.00;agz:-1013.00;
mid:8;x:0;y:0;z:0;mpry:0,0,0;pitch:0;roll:0;yaw:0;vgx:0;vgy:0;vgz:0;templ:91;temph:93;tof:10;h:0;bat:83;baro:98.76;time:0;agx:5.00;agy:-8.00;agz:-987.00;
mid:8;x:0;y:0;z:0;mpry:0,0,0;pitch:0;roll:0;yaw:0;vgx:0;vgy:0;vgz:0;templ:91;temph:93;tof:10;h:0;bat:83;baro:98.74;time:0;agx:3.00;agy:-12.00;agz:-1003.00;
mid:8;x:0;y:0;z:0;mpry:0,0,0;pitch:0;roll:0;yaw:0;vgx:0;vgy:0;vgz:0;templ:91;temph:93;tof:10;h:0;bat:83;baro:98.74;time:0;agx:2.00;agy:-13.00;agz:-1002.00;
mid:8;x:0;y:0;z:0;mpry:0,0,0;pitch:0;roll:0;yaw:0;vgx:0;vgy:0;vgz:0;templ:91;temph:93;tof:10;h:0;bat:83;baro:98.89;time:0;agx:0.00;agy:-17.00;agz:-994.00;
mid:8;x:0;y:0;z:0;mpry:0,0,0;pitch:0;roll:0;yaw:0;vgx:0;vgy:0;vgz:0;templ:91;temph:93;tof:10;h:0;bat:83;baro:98.70;time:0;agx:-4.00;agy:-17.00;agz:-1005.00;
mid:8;x:0;y:0;z:0;mpry:0,0,0;pitch:0;roll:0;yaw:0;vgx:0;vgy:0;vgz:0;templ:91;temph:93;tof:10;h:0;bat:83;baro:98.51;time:0;agx:-3.00;agy:-17.00;agz:-995.00;
mid:8;x:0;y:0;z:0;mpry:0,0,0;pitch:0;roll:0;yaw:0;vgx:0;vgy:0;vgz:0;templ:91;temph:93;tof:10;h:0;bat:83;baro:98.56;time:0;agx:-5.00;agy:-13.00;agz:-1000.00;
mid:8;x:0;y:0;z:0;mpry:0,0,0;pitch:0;roll:0;yaw:0;vgx:0;vgy:0;vgz:0;templ:92;temph:94;tof:10;h:0;bat:83;baro:98.80;time:0;agx:-2.00;agy:-12.00;agz:-1001.00;
mid:8;x:0;y:0;z:0;mpry:0,0,0;pitch:0;roll:0;yaw:0;vgx:0;vgy:0;vgz:0;templ:92;temph:94;tof:10;h:0;bat:83;baro:98.81;time:0;agx:-2.00;agy:-11.00;agz:-997.00;
mid:24;x:0;y:0;z:0;mpry:0,0,0;pitch:0;roll:0;yaw:0;vgx:0;vgy:0;vgz:0;templ:92;temph:94;tof:10;h:0;bat:83;baro:98.31;time:0;agx:-2.00;agy:-10.00;agz:-1003.00;
mid:24;x:0;y:0;z:0;mpry:0,0,0;pitch:0;roll:0;yaw:0;vgx:0;vgy:0;vgz:0;templ:92;temph:94;tof:10;h:0;bat:83;baro:98.29;time:0;agx:0.00;agy:-10.00;agz:-1001.00;
mid:24;x:0;y:0;z:0;mpry:0,0,0;pitch:0;roll:0;yaw:0;vgx:0;vgy:0;vgz:0;templ:92;temph:94;tof:10;h:0;bat:83;baro:98.59;time:0;agx:0.00;agy:-11.00;agz:-996.00;
mid:24;x:0;y:0;z:0;mpry:0,0,0;pitch:0;roll:0;yaw:0;vgx:0;vgy:0;vgz:0;templ:92;temph:94;tof:10;h:0;bat:83;baro:98.70;time:0;agx:0.00;agy:-12.00;agz:-1001.00;
mid:24;x:0;y:0;z:0;mpry:0,0,0;pitch:0;roll:0;yaw:0;vgx:0;vgy:0;vgz:0;templ:92;temph:94;tof:10;h:0;bat:83;baro:98.69;time:0;agx:2.00;agy:-11.00;agz:-997.00;
mid:24;x:0;y:0;z:0;mpry:0,0,0;pitch:0;roll:0;yaw:0;vgx:0;vgy:0;vgz:0;templ:92;temph:94;tof:10;h:0;bat:83;baro:98.77;time:0;agx:2.00;agy:-13.00;agz:-1000.00;
mid:24;x:0;y:0;z:0;mpry:0,0,0;pitch:0;roll:0;yaw:0;vgx:0;vgy:0;vgz:0;templ:92;temph:94;tof:10;h:0;bat:83;baro:98.43;time:0;agx:1.00;agy:-10.00;agz:-1002.00;
mid:24;x:0;y:0;z:0;mpry:0,0,0;pitch:0;roll:0;yaw:0;vgx:0;vgy:0;vgz:0;templ:92;temph:94;tof:10;h:0;bat:83;baro:98.51;time:0;agx:0.00;agy:-11.00;agz:-1000.00;
mid:24;x:0;y:0;z:0;mpry:0,0,0;pitch:0;roll:0;yaw:0;vgx:0;vgy:0;vgz:0;templ:92;temph:94;tof:10;h:0;bat:83;baro:98.80;time:0;agx:1.00;agy:-12.00;agz:-1000.00;
mid:24;x:0;y:0;z:0;mpry:0,0,0;pitch:0;roll:0;yaw:0;vgx:0;vgy:0;vgz:0;templ:92;temph:94;tof:10;h:0;bat:83;baro:98.74;time:0;agx:1.00;agy:-11.00;agz:-1001.00;
mid:24;x:0;y:0;z:0;mpry:0,0,0;pitch:0;roll:0;yaw:0;vgx:0;vgy:0;vgz:0;templ:92;temph:94;tof:10;h:0;bat:83;baro:98.92;time:0;agx:0.00;agy:-12.00;agz:-1002.00;
mid:24;x:0;y:0;z:0;mpry:0,0,0;pitch:0;roll:0;yaw:0;vgx:0;vgy:0;vgz:0;templ:92;temph:94;tof:10;h:0;bat:83;baro:98.87;time:0;agx:1.00;agy:-14.00;agz:-999.00;
mid:24;x:0;y:0;z:0;mpry:0,0,0;pitch:0;roll:0;yaw:0;vgx:0;vgy:0;vgz:0;templ:92;temph:94;tof:10;h:0;bat:83;baro:99.03;time:0;agx:0.00;agy:-10.00;agz:-998.00;
mid:24;x:0;y:0;z:0;mpry:0,0,0;pitch:0;roll:0;yaw:0;vgx:0;vgy:0;vgz:0;templ:92;temph:94;tof:10;h:0;bat:83;baro:98.56;time:0;agx:-3.00;agy:-10.00;agz:-1000.00;
mid:24;x:0;y:0;z:0;mpry:0,0,0;pitch:0;roll:0;yaw:0;vgx:0;vgy:0;vgz:0;templ:92;temph:94;tof:10;h:0;bat:83;baro:98.99;time:0;agx:0.00;agy:-14.00;agz:-998.00;
mid:24;x:0;y:0;z:0;mpry:0,0,0;pitch:0;roll:0;yaw:0;vgx:0;vgy:0;vgz:0;templ:92;temph:94;tof:10;h:0;bat:83;baro:98.83;time:0;agx:1.00;agy:-9.00;agz:-999.00;
mid:24;x:0;y:0;z:0;mpry:0,0,0;pitch:0;roll:0;yaw:0;vgx:0;vgy:0;vgz:0;templ:92;temph:94;tof:10;h:0;bat:83;baro:98.88;time:0;agx:2.00;agy:-11.00;agz:-1001.00;
mid:24;x:0;y:0;z:0;mpry:0,0,0;pitch:0;roll:0;yaw:0;vgx:0;vgy:0;vgz:0;templ:92;temph:94;tof:10;h:0;bat:83;baro:99.48;time:0;agx:1.00;agy:-13.00;agz:-999.00;
mid:24;x:0;y:0;z:0;mpry:0,0,0;pitch:0;roll:0;yaw:0;vgx:0;vgy:0;vgz:0;templ:92;temph:95;tof:10;h:0;bat:83;baro:98.67;time:0;agx:0.00;agy:-10.00;agz:-1000.00;
mid:24;x:0;y:0;z:0;mpry:0,0,0;pitch:0;roll:0;yaw:0;vgx:0;vgy:0;vgz:0;templ:92;temph:95;tof:10;h:0;bat:83;baro:98.98;time:0;agx:3.00;agy:-10.00;agz:-999.00;
mid:24;x:0;y:0;z:0;mpry:0,0,0;pitch:0;roll:0;yaw:0;vgx:0;vgy:0;vgz:0;templ:92;temph:95;tof:10;h:0;bat:83;baro:99.38;time:0;agx:-2.00;agy:-12.00;agz:-999.00;
mid:24;x:0;y:0;z:0;mpry:0,0,0;pitch:0;roll:0;yaw:0;vgx:0;vgy:0;vgz:0;templ:92;temph:95;tof:10;h:0;bat:83;baro:99.15;time:0;agx:-2.00;agy:-14.00;agz:-996.00;
mid:24;x:0;y:0;z:0;mpry:0,0,0;pitch:0;roll:0;yaw:0;vgx:0;vgy:0;vgz:0;templ:92;temph:95;tof:10;h:0;bat:83;baro:98.80;time:0;agx:-1.00;agy:-15.00;agz:-1003.00;
mid:24;x:0;y:0;z:0;mpry:0,0,0;pitch:0;roll:0;yaw:0;vgx:0;vgy:0;vgz:0;templ:92;temph:95;tof:10;h:0;bat:83;baro:99.18;time:0;agx:-5.00;agy:-12.00;agz:-999.00;
mid:24;x:0;y:0;z:0;mpry:0,0,0;pitch:0;roll:0;yaw:0;vgx:0;vgy:0;vgz:0;templ:92;temph:95;tof:10;h:0;bat:83;baro:99.02;time:0;agx:0.00;agy:-6.00;agz:-1001.00;
mid:24;x:0;y:0;z:0;mpry:0,0,0;pitch:0;roll:0;yaw:0;vgx:0;vgy:0;vgz:0;templ:92;temph:95;tof:10;h:0;bat:83;baro:98.94;time:0;agx:0.00;agy:-11.00;agz:-999.00;
mid:24;x:0;y:0;z:0;mpry:0,0,0;pitch:0;roll:0;yaw:0;vgx:0;vgy:0;vgz:0;templ:92;temph:95;tof:10;h:0;bat:83;baro:98.94;time:0;agx:3.00;agy:-2.00;agz:-999.00;
mid:24;x:0;y:0;z:0;mpry:0,0,0;pitch:0;roll:0;yaw:0;vgx:0;vgy:0;vgz:0;templ:92;temph:95;tof:10;h:0;bat:83;baro:99.18;time:0;agx:-1.00;agy:-11.00;agz:-998.00;
mid:24;x:0;y:0;z:0;mpry:0,0,0;pitch:0;roll:0;yaw:0;vgx:0;vgy:0;vgz:0;templ:93;temph:94;tof:10;h:0;bat:83;baro:99.17;time:0;agx:1.00;agy:-15.00;agz:-1000.00;
mid:24;x:0;y:0;z:0;mpry:0,0,0;pitch:0;roll:0;yaw:0;vgx:0;vgy:0;vgz:0;templ:93;temph:94;tof:10;h:0;bat:83;baro:99.18;time:0;agx:0.00;agy:-12.00;agz:-998.00;
mid:24;x:0;y:0;z:0;mpry:0,0,0;pitch:0;roll:0;yaw:0;vgx:0;vgy:0;vgz:0;templ:93;temph:94;tof:10;h:0;bat:83;baro:99.21;time:0;agx:0.00;agy:-10.00;agz:-997.00;
mid:24;x:0;y:0;z:0;mpry:0,0,0;pitch:0;roll:0;yaw:0;vgx:0;vgy:0;vgz:0;templ:93;temph:94;tof:10;h:0;bat:83;baro:98.75;time:0;agx:0.00;agy:-10.00;agz:-998.00;
mid:24;x:0;y:0;z:0;mpry:0,0,0;pitch:0;roll:0;yaw:0;vgx:0;vgy:0;vgz:0;templ:93;temph:94;tof:10;h:0;bat:83;baro:99.20;time:0;agx:0.00;agy:-9.00;agz:-1000.00;
mid:24;x:0;y:0;z:0;mpry:0,0,0;pitch:0;roll:0;yaw:0;vgx:0;vgy:0;vgz:0;templ:93;temph:94;tof:10;h:0;bat:83;baro:98.95;time:0;agx:0.00;agy:-13.00;agz:-997.00;
mid:24;x:0;y:0;z:0;mpry:0,0,0;pitch:0;roll:0;yaw:0;vgx:0;vgy:0;vgz:0;templ:93;temph:94;tof:10;h:0;bat:83;baro:99.17;time:0;agx:0.00;agy:-9.00;agz:-999.00;
mid:24;x:0;y:0;z:0;mpry:0,0,0;pitch:0;roll:0;yaw:0;vgx:0;vgy:0;vgz:0;templ:93;temph:94;tof:10;h:0;bat:83;baro:98.94;time:0;agx:2.00;agy:-12.00;agz:-998.00;
